{"type":"FeatureCollection","features":[{"type":"Feature","properties":{"Name":"Eastover Elementary School","Type":"Regular "},"geometry":{"coordinates":[-80.82128644190172,35.196592892298696],"type":"Point"},"id":0},{"type":"Feature","properties":{"Name":"Idlewild Elementary School","Type":"Regular "},"geometry":{"coordinates":[-80.74412439241462,35.187320989826745],"type":"Point"},"id":1},{"type":"Feature","properties":{"Name":"Elizabeth Traditional Elementary School","Type":"Magnet"},"geometry":{"coordinates":[-80.8253583719442,35.2152760074368],"type":"Point"},"id":2},{"type":"Feature","properties":{"Name":"Sharon Elementary School","Type":"Regular "},"geometry":{"coordinates":[-80.81738818971976,35.15278784967191],"type":"Point"},"id":3},{"type":"Feature","properties":{"Name":"Windsor Park Elementary School","Type":"Regular  "},"geometry":{"coordinates":[-80.75959872438766,35.222789146620954],"type":"Point"},"id":4},{"type":"Feature","properties":{"Name":"Windsor Park Elementary School","Type":"Regular "},"geometry":{"coordinates":[-80.798672996333,35.11031848862031],"type":"Point"},"id":5},{"type":"Feature","properties":{"Name":"Huntingtowne Farms Elementary School","Type":"Regular "},"geometry":{"coordinates":[-80.85969792261513,35.13262570224866],"type":"Point"},"id":6},{"type":"Feature","properties":{"Name":"Parkside Elementary School","Type":"Regular "},"geometry":{"coordinates":[-80.76035466368468,35.36078556325488],"type":"Point"},"id":7},{"type":"Feature","properties":{"Name":"Dilworth Elementary- Latta Campus","Type":"Regular "},"geometry":{"coordinates":[-80.85140077546372,35.211005176863296],"type":"Point"},"id":8},{"type":"Feature","properties":{"Name":"McKee Road Elementary School","Type":"Regular"},"geometry":{"coordinates":[-80.75530775959452,35.06801847729379],"type":"Point"},"id":9},{"type":"Feature","properties":{"Name":"Shamrock Gardens Elementary School ","Type":"Magnet"},"geometry":{"coordinates":[-80.78830197737321,35.234115469734505],"type":"Point"},"id":10},{"type":"Feature","properties":{"Name":"Lansdowne Elementary School","Type":"Magnet"},"geometry":{"coordinates":[-80.78245532930099,35.142452485093116],"type":"Point"},"id":11},{"type":"Feature","properties":{"Name":"Polo Ridge Elementary School","Type":"Regular "},"geometry":{"coordinates":[-80.79504468891777,35.04713418896853],"type":"Point"},"id":12},{"type":"Feature","properties":{"Name":"Beverly Woods Elementary ","Type":"Regular"},"geometry":{"coordinates":[-80.83656975900242,35.13137903473424],"type":"Point"},"id":13},{"type":"Feature","properties":{"Name":"Cotswold Elementary School","Type":"Magnet"},"geometry":{"coordinates":[-80.79774907490392,35.17935712127367],"type":"Point"},"id":14},{"type":"Feature","properties":{"Name":"Selwyn Elementary School","Type":"Regular"},"geometry":{"coordinates":[-80.8349800956023,35.16788831458469],"type":"Point"},"id":15},{"type":"Feature","properties":{"Name":"Elon Park Elementary","Type":"Regular"},"geometry":{"coordinates":[-80.84318774480211,35.02296196530942],"type":"Point"},"id":16},{"type":"Feature","properties":{"Name":"Stoney Creek Elementary School","Type":"Regular"},"geometry":{"coordinates":[-80.72513847602225,35.34836829424509],"type":"Point"},"id":17},{"type":"Feature","properties":{"Name":"Highland Creek Elementary School","Type":"Regular"},"geometry":{"coordinates":[-80.76325470750587,35.378235775064084],"type":"Point"},"id":18},{"type":"Feature","properties":{"Name":"Piney Grove Elementary ","Type":"Regular"},"geometry":{"coordinates":[-80.73054046855513,35.17334388795389],"type":"Point"},"id":19},{"type":"Feature","properties":{"Name":"Hickory Grove Elementary School","Type":"Regular"},"geometry":{"coordinates":[-80.71757536843529,35.226365898370645],"type":"Point"},"id":20},{"type":"Feature","properties":{"Name":"Pinewood Elementary School","Type":"Regular"},"geometry":{"coordinates":[-80.86396393415959,35.16659513884676],"type":"Point"},"id":21},{"type":"Feature","properties":{"Name":"Hawk Ridge Elementary School","Type":"Regular"},"geometry":{"coordinates":[-80.82536892124264,35.043799700463225],"type":"Point"},"id":22},{"type":"Feature","properties":{"Name":"Paw Creek Elementary ","Type":"STEM Magnet "},"geometry":{"coordinates":[-80.94494378972905,35.29080150766211],"type":"Point"},"id":23},{"type":"Feature","properties":{"Name":"Albemarle Road Elementary School","Type":"Regular"},"geometry":{"coordinates":[-80.72919103407196,35.197179413364694],"type":"Point"},"id":24},{"type":"Feature","properties":{"Name":"University Meadows Elementary School","Type":"Regular"},"geometry":{"coordinates":[-80.71435269952993,35.31494941167335],"type":"Point"},"id":25},{"type":"Feature","properties":{"Name":"Steele Creek Elementary","Type":"Regular"},"geometry":{"coordinates":[-80.95543291038047,35.15702435871178],"type":"Point"},"id":26},{"type":"Feature","properties":{"Name":"Reedy Creek Elementary School","Type":"Regular"},"geometry":{"coordinates":[-80.68494688249453,35.26012041512833],"type":"Point"},"id":27},{"type":"Feature","properties":{"Name":"Devonshire Elementary","Type":"Regular"},"geometry":{"coordinates":[-80.74580003554843,35.245296518005645],"type":"Point"},"id":28},{"type":"Feature","properties":{"Name":"Hidden Valley Elementary School","Type":"Regular"},"geometry":{"coordinates":[-80.78422654394672,35.26833254728915],"type":"Point"},"id":29},{"type":"Feature","properties":{"Name":"Nations Ford Elementary","Type":"Regular"},"geometry":{"coordinates":[-80.90600177494393,35.1560522730359],"type":"Point"},"id":30},{"type":"Feature","properties":{"Name":"Newell Elementary School","Type":"Regular"},"geometry":{"coordinates":[-80.75345909465379,35.286990555567684],"type":"Point"},"id":31},{"type":"Feature","properties":{"Name":"Mallard Creek Elementary School","Type":"Magnet"},"geometry":{"coordinates":[-80.77455109821535,35.33530778298842],"type":"Point"},"id":32},{"type":"Feature","properties":{"Name":"Lawrence Orr Elementary School","Type":"Regular"},"geometry":{"coordinates":[-80.74445251422496,35.22621268294522],"type":"Point"},"id":33},{"type":"Feature","properties":{"Name":"Allenbrook Elementary School ","Type":"Regular"},"geometry":{"coordinates":[-80.91499575697406,35.26180282805427],"type":"Point"},"id":34},{"type":"Feature","properties":{"Name":"Winterfield Elementary School","Type":"Regular"},"geometry":{"coordinates":[-80.76749118203847,35.20780906140526],"type":"Point"},"id":35},{"type":"Feature","properties":{"Name":"Villa Heights Elementary ","Type":"Regular"},"geometry":{"coordinates":[-80.81285217704333,35.23660357525081],"type":"Point"},"id":36},{"type":"Feature","properties":{"Name":"Whitewater Academy ","Type":"Regular"},"geometry":{"coordinates":[-80.99046285121294,35.283393766226354],"type":"Point"},"id":37},{"type":"Feature","properties":{"Name":"Briarwood Elementary","Type":"Regular"},"geometry":{"coordinates":[-80.76622353513748,35.25312583172537],"type":"Point"},"id":38},{"type":"Feature","properties":{"Name":"Greenway Park Elementary School ","Type":"Magnet"},"geometry":{"coordinates":[-80.74616471930322,35.157710834040955],"type":"Point"},"id":39},{"type":"Feature","properties":{"Name":"Smithfield Elementary Schoolxc","Type":"Regular"},"geometry":{"coordinates":[-80.85114696748032,35.110527249448154],"type":"Point"},"id":40},{"type":"Feature","properties":{"Name":"Endhaven Elementary School","Type":"Regular"},"geometry":{"coordinates":[-80.83475534684393,35.066754382062044],"type":"Point"},"id":41},{"type":"Feature","properties":{"Name":"Lake Wylie Elementary School ","Type":"Regular"},"geometry":{"coordinates":[-80.97184625958391,35.11559581900613],"type":"Point"},"id":42},{"type":"Feature","properties":{"Name":"Ashley Park Elementary School","Type":"Regular"},"geometry":{"coordinates":[-80.89076442811654,35.23305689592108],"type":"Point"},"id":43},{"type":"Feature","properties":{"Name":"River Gate Elementary ","Type":"Regular"},"geometry":{"coordinates":[-80.97715993429962,35.08715831027992],"type":"Point"},"id":44},{"type":"Feature","properties":{"Name":"Winding Springs Elementary ","Type":"Regular"},"geometry":{"coordinates":[-80.82853377182869,35.30633017732323],"type":"Point"},"id":45},{"type":"Feature","properties":{"Name":"Myers Park Traditional","Type":"Magnet"},"geometry":{"coordinates":[-80.83437055433923,35.1903142388737],"type":"Point"},"id":46},{"type":"Feature","properties":{"Name":"Rama Road Elementary School ","Type":"Regular"},"geometry":{"coordinates":[-80.77179672289672,35.16959309102111],"type":"Point"},"id":47},{"type":"Feature","properties":{"Name":"Tuckaseegee Elementary School","Type":"Magnet"},"geometry":{"coordinates":[-80.94148987111917,35.24984042447835],"type":"Point"},"id":48},{"type":"Feature","properties":{"Name":"J.H. Gunn Elementary ","Type":"Regular"},"geometry":{"coordinates":[-80.68546625033161,35.21553001243163],"type":"Point"},"id":49},{"type":"Feature","properties":{"Name":"Starmount Elementary ","Type":"Regular"},"geometry":{"coordinates":[-80.87092096605134,35.13963206126725],"type":"Point"},"id":50},{"type":"Feature","properties":{"Name":"Berewick Elementary ","Type":"Regular"},"geometry":{"coordinates":[-80.97848878683176,35.17387978101412],"type":"Point"},"id":51},{"type":"Feature","properties":{"Name":"Oakdale Elementary ","Type":"Regular"},"geometry":{"coordinates":[-80.89652684468119,35.30014968348287],"type":"Point"},"id":52},{"type":"Feature","properties":{"Name":"Westerly Hills Elementary School","Type":"Regular"},"geometry":{"coordinates":[-80.9115770896185,35.231745685172854],"type":"Point"},"id":53},{"type":"Feature","properties":{"Name":"Billingsville Elementary ","Type":"Magnet"},"geometry":{"coordinates":[-80.80945630059499,35.196246145869864],"type":"Point"},"id":54},{"type":"Feature","properties":{"Name":"Croft Community Elementary School ","Type":"Regular"},"geometry":{"coordinates":[-80.80481013417715,35.34621257076458],"type":"Point"},"id":55},{"type":"Feature","properties":{"Name":"Montclaire Elementary ","Type":"Regular"},"geometry":{"coordinates":[-80.86686196295281,35.150748738620095],"type":"Point"},"id":56},{"type":"Feature","properties":{"Name":"Elizabeth Lane Elementary School ","Type":"Regular"},"geometry":{"coordinates":[-80.74757721408463,35.11229123325708],"type":"Point"},"id":57},{"type":"Feature","properties":{"Name":"River Oaks Academy","Type":"Regular"},"geometry":{"coordinates":[-80.97831614753198,35.308456560551846],"type":"Point"},"id":58},{"type":"Feature","properties":{"Name":"Dorothy J. Vaughan Academy of Technology","Type":"Magnet"},"geometry":{"coordinates":[-80.73376327976244,35.285313160986206],"type":"Point"},"id":59},{"type":"Feature","properties":{"Name":"Palisades Park Elementary","Type":"Regular"},"geometry":{"coordinates":[-81.02589886173061,35.093830033030954],"type":"Point"},"id":60},{"type":"Feature","properties":{"Name":"Thomasboro Academy ","Type":"Regular"},"geometry":{"coordinates":[-80.89762020995413,35.255447952876125],"type":"Point"},"id":61},{"type":"Feature","properties":{"Name":"Irwin Academic Center","Type":"Magnet"},"geometry":{"coordinates":[-80.84999914684916,35.237394422326545],"type":"Point"},"id":62},{"type":"Feature","properties":{"Name":"Joseph W. Grier Academy ","Type":"Regular"},"geometry":{"coordinates":[-80.72554809325355,35.26724692068228],"type":"Point"},"id":63},{"type":"Feature","properties":{"Name":"Bruns Avenue Elementary ","Type":"Magnet"},"geometry":{"coordinates":[-80.86488443683886,35.23916633109256],"type":"Point"},"id":64},{"type":"Feature","properties":{"Name":"Clear Creek Elementary ","Type":"Regular"},"geometry":{"coordinates":[-80.62515153309928,35.22422204000624],"type":"Point"},"id":65},{"type":"Feature","properties":{"Name":"First Ward Creative Arts Academy","Type":"Magnet"},"geometry":{"coordinates":[-80.83235634474103,35.22922605679268],"type":"Point"},"id":66},{"type":"Feature","properties":{"Name":"Merry Oaks International Academy","Type":"Regular"},"geometry":{"coordinates":[-80.78253373830086,35.21872169419919],"type":"Point"},"id":67},{"type":"Feature","properties":{"Name":"David Cox Elementary","Type":"Regular"},"geometry":{"coordinates":[-80.80084568220946,35.33688087429998],"type":"Point"},"id":68},{"type":"Feature","properties":{"Name":"Reid Park Academy","Type":"Regular"},"geometry":{"coordinates":[-80.90541561474882,35.20504535364498],"type":"Point"},"id":69},{"type":"Feature","properties":{"Name":"Highland Renaissance Academy ","Type":"Regular"},"geometry":{"coordinates":[-80.80313587639296,35.255598524875936],"type":"Point"},"id":70},{"type":"Feature","properties":{"Name":"University Park Creative Arts School","Type":"Magnet"},"geometry":{"coordinates":[-80.85910066501096,35.26103087784075],"type":"Point"},"id":71},{"type":"Feature","properties":{"Name":"Druid Hills Academy","Type":"Regular"},"geometry":{"coordinates":[-80.82409971827995,35.25707296891582],"type":"Point"},"id":72},{"type":"Feature","properties":{"Name":"Governor's Village STEM Academy (Upper Campus)","Type":"Magnet"},"geometry":{"coordinates":[-80.77460409689056,35.29869865102003],"type":"Point"},"id":73},{"type":"Feature","properties":{"Name":"Walter G. Byers Elementary School","Type":"Regular"},"geometry":{"coordinates":[-80.8417581939163,35.244185266088905],"type":"Point"},"id":74},{"type":"Feature","properties":{"Name":"Crown Point Elementary School","Type":"Regular"},"geometry":{"coordinates":[-80.71534606570556,35.16011866664272],"type":"Point"},"id":75},{"type":"Feature","properties":{"Name":"Matthews Elementary","Type":"Regular"},"geometry":{"coordinates":[-80.72376479265945,35.113686424998136],"type":"Point"},"id":76},{"type":"Feature","properties":{"Name":"Oakhurst STEAM Academy","Type":"Partial-Magnet"},"geometry":{"coordinates":[-80.78376278806192,35.19479797364551],"type":"Point"},"id":77},{"type":"Feature","properties":{"Name":"Mountain Island Lake Academy","Type":"Magnet"},"geometry":{"coordinates":[-80.92840646029266,35.30825639948145],"type":"Point"},"id":78},{"type":"Feature","properties":{"Name":"Rea Farms STEAM Academy","Type":"Partial-Magnet"},"geometry":{"coordinates":[-80.77915182208916,35.05487469485287],"type":"Point"},"id":79},{"type":"Feature","properties":{"Name":"Berryhill School","Type":"Regular"},"geometry":{"coordinates":[-80.99066914836759,35.21279494949468],"type":"Point"},"id":80},{"type":"Feature","properties":{"Name":"Charles H. Parker Academic Center","Type":"Magnet"},"geometry":{"coordinates":[-80.88925359507314,35.21170516376961],"type":"Point"},"id":81},{"type":"Feature","properties":{"Name":"Dilworth Elementary - Sedgefield Campus","Type":"Regular"},"geometry":{"coordinates":[-80.86341331778976,35.19030322685012],"type":"Point"},"id":82},{"type":"Feature","properties":{"Name":"Antioch Elementary School","Type":"Regular"},"geometry":{"coordinates":[-80.72274246797411,35.05847906145358],"type":"Point"},"id":83},{"type":"Feature","properties":{"Name":"Charlotte East Language Academy","Type":"Spanish Immersion Magnet"},"geometry":{"coordinates":[-80.74774650429796,35.20904067877947],"type":"Point"},"id":84},{"type":"Feature","properties":{"Name":"Niner University Elementary School","Type":"Regular, created with UNCC"},"geometry":{"coordinates":[-80.90271109831217,35.20428805151967],"type":"Point"},"id":85},{"type":"Feature","properties":{"Name":"Harrisburg Elementary School","Type":"Regular"},"geometry":{"coordinates":[-80.64108821726678,35.318616907024236],"type":"Point"},"id":86},{"type":"Feature","properties":{"Name":"Oaklawn Language Academy","Type":"Magnet"},"geometry":{"coordinates":[-80.85029256941885,35.25114136865456],"type":"Point"},"id":87},{"type":"Feature","properties":{"Name":"Charlotte Mecklenburg Academy","Type":"Regular"},"geometry":{"coordinates":[-80.84596948478372,35.30033880244224],"type":"Point"},"id":88},{"type":"Feature","properties":{"Name":"Knights View Elementary School","Type":"Regular"},"geometry":{"coordinates":[-80.82743172023727,35.02719232364467],"type":"Point"},"id":89}]}